[
  {
    "equipmentId": "EQ-001",
    "equipmentName": "Pompa Air Utama A",
    "functionalLocation": "Basement Lantai B1",
    "category": "Mekanik",
    "plantId": "KTI-01",
    "plantName": "PT Krakatau Tirta Industri",
    "latitude": -6.0131,
    "longitude": 106.0215
  },
  {
    "equipmentId": "EQ-002",
    "equipmentName": "Pompa Air Utama B",
    "functionalLocation": "Basement Lantai B1",
    "category": "Mekanik",
    "plantId": "KTI-01",
    "plantName": "PT Krakatau Tirta Industri",
    "latitude": -6.0133,
    "longitude": 106.0218
  },
  {
    "equipmentId": "EQ-003",
    "equipmentName": "Pompa Booster Lantai 5",
    "functionalLocation": "Ruang Pompa Lantai 5",
    "category": "Mekanik",
    "plantId": "KTI-01",
    "plantName": "PT Krakatau Tirta Industri",
    "latitude": -6.0128,
    "longitude": 106.0222
  },
  {
    "equipmentId": "EQ-004",
    "equipmentName": "Kompresor Udara Gedung",
    "functionalLocation": "Ruang Utilitas B2",
    "category": "Mekanik",
    "plantId": "KTI-01",
    "plantName": "PT Krakatau Tirta Industri",
    "latitude": -6.0139,
    "longitude": 106.0212
  },
  {
    "equipmentId": "EQ-005",
    "equipmentName": "Panel Listrik Utama",
    "functionalLocation": "Ruang Panel Lantai 1",
    "category": "Listrik",
    "plantId": "KTI-01",
    "plantName": "PT Krakatau Tirta Industri",
    "latitude": -6.0136,
    "longitude": 106.0224
  },
  {
    "equipmentId": "EQ-006",
    "equipmentName": "Panel Distribusi Lantai 3",
    "functionalLocation": "Ruang Panel Lantai 3",
    "category": "Listrik",
    "plantId": "KTI-01",
    "plantName": "PT Krakatau Tirta Industri",
    "latitude": -6.0130,
    "longitude": 106.0226
  },
  {
    "equipmentId": "EQ-007",
    "equipmentName": "Genset Cadangan 200 kVA",
    "functionalLocation": "Area Genset Basement",
    "category": "Listrik",
    "plantId": "KTI-01",
    "plantName": "PT Krakatau Tirta Industri",
    "latitude": -6.0141,
    "longitude": 106.0220
  },
  {
    "equipmentId": "EQ-008",
    "equipmentName": "Bak Penampungan Utama",
    "functionalLocation": "Area Luar Gedung",
    "category": "Sipil",
    "plantId": "KTI-01",
    "plantName": "PT Krakatau Tirta Industri",
    "latitude": -6.0126,
    "longitude": 106.0210
  },
  {
    "equipmentId": "EQ-009",
    "equipmentName": "Saluran Drainase Utara",
    "functionalLocation": "Area Drainase Utara",
    "category": "Sipil",
    "plantId": "KTI-01",
    "plantName": "PT Krakatau Tirta Industri",
    "latitude": -6.0124,
    "longitude": 106.0217
  },
  {
    "equipmentId": "EQ-010",
    "equipmentName": "Sensor Level Air Tank 1",
    "functionalLocation": "Rooftop Area",
    "category": "Otomasi",
    "plantId": "KTI-01",
    "plantName": "PT Krakatau Tirta Industri",
    "latitude": -6.0134,
    "longitude": 106.0228
  }
]