[
  {
    "equipmentId": "2210000438",
    "equipmentName": "Pompa Intake Cidanau 1M1",
    "functionalLocation": "A-A1-01-005-004",
    "funcLocId": "A-A1-01-005-004",
    "category": "Mekanik",
    "abcIndicator": "A",
    "plantId": "I-22L001",
    "plantName": "PS I Cidanau",
    "latitude": -6.0131,
    "longitude": 106.0215
  },
  {
    "equipmentId": "2210000439",
    "equipmentName": "Pompa Intake Cidanau 2M1",
    "functionalLocation": "A-A1-01-005-004",
    "funcLocId": "A-A1-01-005-004",
    "category": "Mekanik",
    "abcIndicator": "A",
    "plantId": "I-22L001",
    "plantName": "PS I Cidanau",
    "latitude": -6.0133,
    "longitude": 106.0218
  },
  {
    "equipmentId": "2210000449",
    "equipmentName": "Pompa Booster Clorine Cidanau",
    "functionalLocation": "A-A1-01-005-006",
    "funcLocId": "A-A1-01-005-006",
    "category": "Mekanik",
    "abcIndicator": "B",
    "plantId": "I-22L001",
    "plantName": "PS I Cidanau",
    "latitude": -6.0128,
    "longitude": 106.0222
  },
  {
    "equipmentId": "2210000451",
    "equipmentName": "Pompa Sump Pump Cidanau",
    "functionalLocation": "A-A1-01-005-004",
    "funcLocId": "A-A1-01-005-004",
    "category": "Mekanik",
    "abcIndicator": "B",
    "plantId": "I-22L001",
    "plantName": "PS I Cidanau",
    "latitude": -6.0139,
    "longitude": 106.0210
  },
  {
    "equipmentId": "2210000640",
    "equipmentName": "Panel Katodik Cidanau I",
    "functionalLocation": "A-A1-01-005",
    "funcLocId": "A-A1-01-005",
    "category": "Listrik",
    "abcIndicator": "B",
    "plantId": "I-22L001",
    "plantName": "PS I Cidanau",
    "latitude": -6.0136,
    "longitude": 106.0224
  },
  {
    "equipmentId": "2210000651",
    "equipmentName": "Transformator BT 01",
    "functionalLocation": "A-A1-01-004-001",
    "funcLocId": "A-A1-01-004-001",
    "category": "Listrik",
    "abcIndicator": "A",
    "plantId": "I-22L001",
    "plantName": "PS I Cidanau",
    "latitude": -6.0140,
    "longitude": 106.0226
  },
  {
    "equipmentId": "2210000652",
    "equipmentName": "Transformator BT 02",
    "functionalLocation": "A-A1-01-004-002",
    "funcLocId": "A-A1-01-004-002",
    "category": "Listrik",
    "abcIndicator": "A",
    "plantId": "I-22L001",
    "plantName": "PS I Cidanau",
    "latitude": -6.0141,
    "longitude": 106.0220
  },
  {
    "equipmentId": "2210000327",
    "equipmentName": "Manhole SLD Basin",
    "functionalLocation": "A-A2-03-012",
    "funcLocId": "A-A2-03-012",
    "category": "Sipil",
    "abcIndicator": "B",
    "plantId": "P-22L006",
    "plantName": "WTP Cidanau",
    "latitude": -6.0128,
    "longitude": 106.0212
  },
  {
    "equipmentId": "2210003422",
    "equipmentName": "Motor Mixing Polymer Thickner 2M1",
    "functionalLocation": "A-A2-01-010-001",
    "funcLocId": "A-A2-01-010-001",
    "category": "Sipil",
    "abcIndicator": "B",
    "plantId": "I-22L002",
    "plantName": "DECANTER",
    "latitude": -6.0125,
    "longitude": 106.0208
  },
  {
    "equipmentId": "2210000605",
    "equipmentName": "Sensor AWLR",
    "functionalLocation": "A-A1-01-001",
    "funcLocId": "A-A1-01-001",
    "category": "Otomasi",
    "abcIndicator": "A",
    "plantId": "I-22L001",
    "plantName": "PS I Cidanau",
    "latitude": -6.0143,
    "longitude": 106.0228
  }
]
