[
  {
    "equipmentId": "EQ-001",
    "equipmentName": "Pompa Air Utama A",
    "functionalLocation": "Basement Lantai B1",
    "category": "Mekanik",
    "latitude": -6.21682,
    "longitude": 106.81333
  },
  {
    "equipmentId": "EQ-002",
    "equipmentName": "Pompa Air Utama B",
    "functionalLocation": "Basement Lantai B1",
    "category": "Mekanik",
    "latitude": -6.21688,
    "longitude": 106.81345
  },
  {
    "equipmentId": "EQ-003",
    "equipmentName": "Pompa Booster Lantai 5",
    "functionalLocation": "Ruang Pompa Lantai 5",
    "category": "Mekanik",
    "latitude": -6.21658,
    "longitude": 106.8134
  },
  {
    "equipmentId": "EQ-004",
    "equipmentName": "Kompresor Udara Gedung",
    "functionalLocation": "Ruang Utilitas B2",
    "category": "Mekanik",
    "latitude": -6.21698,
    "longitude": 106.81328
  },
  {
    "equipmentId": "EQ-005",
    "equipmentName": "Panel Listrik Utama",
    "functionalLocation": "Ruang Panel Lantai 1",
    "category": "Listrik",
    "latitude": -6.21671,
    "longitude": 106.81318
  },
  {
    "equipmentId": "EQ-006",
    "equipmentName": "Panel Distribusi Lantai 3",
    "functionalLocation": "Ruang Panel Lantai 3",
    "category": "Listrik",
    "latitude": -6.21654,
    "longitude": 106.81325
  },
  {
    "equipmentId": "EQ-007",
    "equipmentName": "Genset Cadangan 200 kVA",
    "functionalLocation": "Area Genset Basement",
    "category": "Listrik",
    "latitude": -6.21702,
    "longitude": 106.81352
  },
  {
    "equipmentId": "EQ-008",
    "equipmentName": "Bak Penampungan Utama",
    "functionalLocation": "Area Luar Gedung",
    "category": "Sipil",
    "latitude": -6.21663,
    "longitude": 106.81298
  },
  {
    "equipmentId": "EQ-009",
    "equipmentName": "Saluran Drainase Utara",
    "functionalLocation": "Area Drainase Utara",
    "category": "Sipil",
    "latitude": -6.21638,
    "longitude": 106.81315
  },
  {
    "equipmentId": "EQ-010",
    "equipmentName": "Sensor Level Air Tank 1",
    "functionalLocation": "Rooftop Area",
    "category": "Otomasi",
    "latitude": -6.21645,
    "longitude": 106.81338
  }
]