[
  {
    "equipmentId": "EQ-001",
    "equipmentName": "Pompa Air Utama A",
    "functionalLocation": "Basement Lantai B1",
    "funcLocId": "A-A1-01-001-001",
    "category": "Mekanik",
    "abcIndicator": "A",
    "plantId": "I-22L001",
    "plantName": "PS I Cidanau",
    "latitude": -6.0131,
    "longitude": 106.0215
  },
  {
    "equipmentId": "EQ-002",
    "equipmentName": "Pompa Air Utama B",
    "functionalLocation": "Basement Lantai B1",
    "funcLocId": "A-A1-01-001-001",
    "category": "Mekanik",
    "abcIndicator": "A",
    "plantId": "I-22L001",
    "plantName": "PS I Cidanau",
    "latitude": -6.0133,
    "longitude": 106.0218
  },
  {
    "equipmentId": "EQ-003",
    "equipmentName": "Pompa Booster Lantai 5",
    "functionalLocation": "Ruang Pompa Lantai 5",
    "funcLocId": "A-A1-01-003-001",
    "category": "Mekanik",
    "abcIndicator": "B",
    "plantId": "I-22L001",
    "plantName": "PS I Cidanau",
    "latitude": -6.0128,
    "longitude": 106.0222
  },
  {
    "equipmentId": "EQ-004",
    "equipmentName": "Kompresor Udara Gedung",
    "functionalLocation": "Ruang Utilitas B2",
    "funcLocId": "A-A1-01-004-001",
    "category": "Mekanik",
    "abcIndicator": "B",
    "plantId": "I-22L001",
    "plantName": "PS I Cidanau",
    "latitude": -6.0139,
    "longitude": 106.0210
  },
  {
    "equipmentId": "EQ-005",
    "equipmentName": "Panel Listrik Utama",
    "functionalLocation": "Ruang Panel Lantai 1",
    "funcLocId": "A-A1-01-004-002",
    "category": "Listrik",
    "abcIndicator": "B",
    "plantId": "I-22L001",
    "plantName": "PS I Cidanau",
    "latitude": -6.0136,
    "longitude": 106.0224
  },
  {
    "equipmentId": "EQ-006",
    "equipmentName": "Panel Distribusi Lantai 3",
    "functionalLocation": "Ruang Panel Lantai 3",
    "funcLocId": "A-A1-01-004-003",
    "category": "Listrik",
    "abcIndicator": "A",
    "plantId": "I-22L001",
    "plantName": "PS I Cidanau",
    "latitude": -6.0140,
    "longitude": 106.0226
  },
  {
    "equipmentId": "EQ-007",
    "equipmentName": "Genset Cadangan 200 kVA",
    "functionalLocation": "Area Genset Basement",
    "funcLocId": "A-A1-01-005-001",
    "category": "Listrik",
    "abcIndicator": "A",
    "plantId": "I-22L001",
    "plantName": "PS I Cidanau",
    "latitude": -6.0141,
    "longitude": 106.0220
  },
  {
    "equipmentId": "EQ-008",
    "equipmentName": "Bak Penampungan Utama",
    "functionalLocation": "Area Luar Gedung",
    "funcLocId": "A-A1-01-005-004",
    "category": "Sipil",
    "abcIndicator": "B",
    "plantId": "P-22L006",
    "plantName": "WTP Cidanau",
    "latitude": -6.0128,
    "longitude": 106.0212
  },
  {
    "equipmentId": "EQ-009",
    "equipmentName": "Saluran Drainase Utara",
    "functionalLocation": "Area Drainase Utara",
    "funcLocId": "A-A1-01-006-003",
    "category": "Sipil",
    "abcIndicator": "B",
    "plantId": "I-22L002",
    "plantName": "DECANTER",
    "latitude": -6.0125,
    "longitude": 106.0208
  },
  {
    "equipmentId": "EQ-010",
    "equipmentName": "Sensor Level Air Tank 1",
    "functionalLocation": "Rooftop Area",
    "funcLocId": "A-A1-01-006-004",
    "category": "Otomasi",
    "abcIndicator": "A",
    "plantId": "I-22L001",
    "plantName": "PS I Cidanau",
    "latitude": -6.0143,
    "longitude": 106.0228
  }
]
